[
{
"nome": "Parque Tecnológico da Bahia (CAB)",
"endereco": "5ª Avenida, Plataforma II, Ala B, 1º Andar, nº 0, CAB, Salvador, BA",
"o_que_aceita": "Itens de informática (monitores, CPUs, mouses, teclados, estabilizadores, cartuchos), Pilhas e Baterias.",
"latitude": -12.9260,
"longitude": -38.4147
},
{
"nome": "Shopping Bella Vista",
"endereco": "Alameda Euvaldo Luz, 92 – Horto Bela Vista, Salvador, BA",
"o_que_aceita": "Celulares, gabinetes, mouses e teclados (posto próximo à Administração).",
"latitude": -12.9690,
"longitude": -38.4610
},
{
"nome": "Salvador Norte Shopping",
"endereco": "BA-526, 305 – São Cristóvão, Salvador, BA",
"o_que_aceita": "Diversos tipos de lixo eletrônico (posto no piso L1, ao lado do balcão de informações).",
"latitude": -12.9200,
"longitude": -38.3580
},
{
"nome": "Casas Bahia - Itapuã (PEV)",
"endereco": "Avenida Dorival Caymmi, 264 – Itapuã, Salvador, BA",
"o_que_aceita": "Eletroeletrônicos em geral e Pilhas/Baterias.",
"latitude": -12.9520,
"longitude": -38.3750
},
{
"nome": "Fábrica Cultural (Cidade Baixa)",
"endereco": "Rua Rosalvo Barbosa, ao lado da Igreja São Jorge, Vila Ruy Barbosa, Salvador, BA",
"o_que_aceita": "Diversos resíduos eletrônicos.",
"latitude": -12.9120,
"longitude": -38.4980
}
]
